[
  {
    "id": 12,
    "name": "Grand Atlanta Hotel",
    "longitude": -84.388,
    "latitude": 33.749,
    "description": "A luxurious stay in the heart of Atlanta with modern amenities.",
    "street": "123 Peachtree St NE",
    "city": "Atlanta",
    "country": "United States",
    "rating": 4.3
  },
  {
    "id": 45,
    "name": "Beijing Pearl Hotel",
    "longitude": 116.4074,
    "latitude": 39.9042,
    "description": "Experience the charm of Beijing with stunning views and exceptional service.",
    "street": "456 Chang'an Ave",
    "city": "Beijing",
    "country": "China",
    "rating": 4.7
  },
  {
    "id": 7,
    "name": "Los Angeles Skyline Inn",
    "longitude": -118.2437,
    "latitude": 34.0522,
    "description": "A cozy retreat near the iconic landmarks of Los Angeles.",
    "street": "789 Wilshire Blvd",
    "city": "Los Angeles",
    "country": "United States",
    "rating": 3.9
  },
  {
    "id": 56,
    "name": "Dubai Palm Oasis",
    "longitude": 55.2708,
    "latitude": 25.2042,
    "description": "Luxury meets elegance at this world-class hotel in Dubai.",
    "street": "101 Palm Jumeirah Rd",
    "city": "Dubai",
    "country": "United Arab Emirates",
    "rating": 4.8
  },
  {
    "id": 34,
    "name": "Tokyo Sakura Suites",
    "longitude": 139.6917,
    "latitude": 35.6895,
    "description": "Enjoy the vibrant culture of Tokyo with comfort and style.",
    "street": "202 Shinjuku Blvd",
    "city": "Tokyo",
    "country": "Japan",
    "rating": 4.5
  },
  {
    "id": 67,
    "name": "Chicago Windy Tower",
    "longitude": -87.6298,
    "latitude": 41.8781,
    "description": "A stylish hotel offering breathtaking views of Lake Michigan.",
    "street": "303 Michigan Ave",
    "city": "Chicago",
    "country": "United States",
    "rating": 4.2
  },
  {
    "id": 12,
    "name": "Atlanta Lakeside Resort",
    "longitude": -84.388,
    "latitude": 33.749,
    "description": "Relax by the lake in this serene resort just outside Atlanta.",
    "street": "987 Lakeview Dr",
    "city": "Atlanta",
    "country": "United States",
    "rating": 4.0
  },
  {
    "id": 45,
    "name": "Beijing Forbidden City Hotel",
    "longitude": 116.4074,
    "latitude": 39.9042,
    "description": "Steps away from the historic Forbidden City.",
    "street": "789 Wangfujing St",
    "city": "Beijing",
    "country": "China",
    "rating": 4.6
  },
  {
    "id": 7,
    "name": "Hollywood Hills Hotel",
    "longitude": -118.2437,
    "latitude": 34.0522,
    "description": "Stay close to Hollywood's glitz and glamour.",
    "street": "456 Sunset Blvd",
    "city": "Los Angeles",
    "country": "United States",
    "rating": 3.8
  },
  {
    "id": 56,
    "name": "Dubai Desert Sands Inn",
    "longitude": 55.2708,
    "latitude": 25.2042,
    "description": "Experience the tranquility of the desert in this unique hotel.",
    "street": "202 Al Maktoum Rd",
    "city": "Dubai",
    "country": "United Arab Emirates",
    "rating": 4.4
  },
  {
    "id": 34,
    "name": "Tokyo Tower View",
    "longitude": 139.6917,
    "latitude": 35.6895,
    "description": "Panoramic views of Tokyo Tower from every room.",
    "street": "505 Roppongi Hills",
    "city": "Tokyo",
    "country": "Japan",
    "rating": 4.7
  },
  {
    "id": 67,
    "name": "Chicago Riverfront Hotel",
    "longitude": -87.6298,
    "latitude": 41.8781,
    "description": "A riverside hotel with easy access to downtown Chicago.",
    "street": "606 Wacker Dr",
    "city": "Chicago",
    "country": "United States",
    "rating": 4.3
  },
  {
    "id": 12,
    "name": "Atlanta Airport Suites",
    "longitude": -84.4488,
    "latitude": 33.6407,
    "description": "Conveniently located near Hartsfield-Jackson Airport.",
    "street": "101 Airport Blvd",
    "city": "Atlanta",
    "country": "United States",
    "rating": 3.5
  },
  {
    "id": 45,
    "name": "Beijing Olympic Village Hotel",
    "longitude": 116.4074,
    "latitude": 39.9042,
    "description": "Close to the iconic Bird's Nest Stadium.",
    "street": "303 Olympic Park Rd",
    "city": "Beijing",
    "country": "China",
    "rating": 4.6
  },
  {
    "id": 7,
    "name": "Santa Monica Beach Resort",
    "longitude": -118.4912,
    "latitude": 34.0194,
    "description": "Steps away from the beautiful Santa Monica Pier.",
    "street": "707 Ocean Ave",
    "city": "Los Angeles",
    "country": "United States",
    "rating": 4.1
  },
  {
    "id": 56,
    "name": "Dubai Marina View",
    "longitude": 55.1322,
    "latitude": 25.0707,
    "description": "A modern hotel overlooking the bustling Dubai Marina.",
    "street": "808 Marina Walk",
    "city": "Dubai",
    "country": "United Arab Emirates",
    "rating": 4.5
  },
  {
    "id": 34,
    "name": "Tokyo Bayfront Inn",
    "longitude": 139.7798,
    "latitude": 35.6325,
    "description": "A waterfront hotel with stunning views of Tokyo Bay.",
    "street": "909 Odaiba Seaside Park",
    "city": "Tokyo",
    "country": "Japan",
    "rating": 4.4
  },
  {
    "id": 67,
    "name": "Chicago Magnificent Mile Suites",
    "longitude": -87.6232,
    "latitude": 41.8988,
    "description": "Located on the famous Magnificent Mile shopping district.",
    "street": "101 E Walton St",
    "city": "Chicago",
    "country": "United States",
    "rating": 4.6
  },
  {
    "id": 12,
    "name": "Atlanta Midtown Plaza",
    "longitude": -84.388,
    "latitude": 33.749,
    "description": "A vibrant hotel in the heart of Atlanta's Midtown neighborhood.",
    "street": "202 10th St NE",
    "city": "Atlanta",
    "country": "United States",
    "rating": 4.2
  },
  {
    "id": 45,
    "name": "Beijing Summer Palace Retreat",
    "longitude": 116.2742,
    "latitude": 39.9991,
    "description": "A peaceful escape near the historic Summer Palace.",
    "street": "101 Yiheyuan Rd",
    "city": "Beijing",
    "country": "China",
    "rating": 4.7
  },
  {
    "id": 7,
    "name": "Venice Beach Bungalows",
    "longitude": -118.4667,
    "latitude": 33.9857,
    "description": "Charming bungalows steps away from Venice Beach.",
    "street": "303 Ocean Front Walk",
    "city": "Los Angeles",
    "country": "United States",
    "rating": 3.9
  },
  {
    "id": 56,
    "name": "Dubai Creek Golf Resort",
    "longitude": 55.3114,
    "latitude": 25.2583,
    "description": "A golfer's paradise with views of Dubai Creek.",
    "street": "404 Deira Corniche",
    "city": "Dubai",
    "country": "United Arab Emirates",
    "rating": 4.5
  },
  {
    "id": 34,
    "name": "Tokyo Ginza Grand",
    "longitude": 139.7671,
    "latitude": 35.6703,
    "description": "Luxury accommodations in the upscale Ginza district.",
    "street": "505 Chuo Dori",
    "city": "Tokyo",
    "country": "Japan",
    "rating": 4.8
  },
  {
    "id": 67,
    "name": "Chicago Navy Pier Hotel",
    "longitude": -87.6168,
    "latitude": 41.8889,
    "description": "Walking distance to the iconic Navy Pier.",
    "street": "606 E Grand Ave",
    "city": "Chicago",
    "country": "United States",
    "rating": 4.3
  },
  {
    "id": 12,
    "name": "Atlanta Buckhead Boutique",
    "longitude": -84.3677,
    "latitude": 33.8441,
    "description": "A boutique hotel in the upscale Buckhead area.",
    "street": "707 Bolling Way NE",
    "city": "Atlanta",
    "country": "United States",
    "rating": 4.1
  },
  {
    "id": 45,
    "name": "Beijing Temple of Heaven Inn",
    "longitude": 116.4107,
    "latitude": 39.8822,
    "description": "Minutes away from the historic Temple of Heaven.",
    "street": "808 Tiantan Rd",
    "city": "Beijing",
    "country": "China",
    "rating": 4.6
  },
  {
    "id": 7,
    "name": "Malibu Beach House",
    "longitude": -118.7788,
    "latitude": 34.0258,
    "description": "A secluded beach house with oceanfront views.",
    "street": "909 Malibu Colony Rd",
    "city": "Los Angeles",
    "country": "United States",
    "rating": 4.0
  },
  {
    "id": 56,
    "name": "Dubai Downtown Skyline",
    "longitude": 55.2788,
    "latitude": 25.1972,
    "description": "Modern luxury in the heart of Downtown Dubai.",
    "street": "101 Sheikh Mohammed Bin Rashid Blvd",
    "city": "Dubai",
    "country": "United Arab Emirates",
    "rating": 4.7
  },
  {
    "id": 34,
    "name": "Tokyo Shibuya Stay",
    "longitude": 139.7006,
    "latitude": 35.6581,
    "description": "A trendy hotel in the bustling Shibuya district.",
    "street": "202 Center Gai",
    "city": "Tokyo",
    "country": "Japan",
    "rating": 4.4
  },
  {
    "id": 67,
    "name": "Chicago Loop Luxury",
    "longitude": -87.6298,
    "latitude": 41.8781,
    "description": "A high-end hotel in the heart of Chicago's Loop.",
    "street": "303 S Wabash Ave",
    "city": "Chicago",
    "country": "United States",
    "rating": 4.5
  },
  {
    "id": 12,
    "name": "Atlanta Perimeter Park",
    "longitude": -84.3612,
    "latitude": 33.9086,
    "description": "A business-friendly hotel near Perimeter Mall.",
    "street": "404 Ashford Dunwoody Rd",
    "city": "Atlanta",
    "country": "United States",
    "rating": 3.8
  },
  {
    "id": 45,
    "name": "Beijing 798 Art District Hotel",
    "longitude": 116.4977,
    "latitude": 39.9836,
    "description": "An artsy hotel in the heart of Beijing's creative hub.",
    "street": "505 Jiuxianqiao Rd",
    "city": "Beijing",
    "country": "China",
    "rating": 4.6
  },
  {
    "id": 7,
    "name": "Long Beach Waterfront Inn",
    "longitude": -118.1883,
    "latitude": 33.7701,
    "description": "A charming inn with direct access to Long Beach.",
    "street": "606 Ocean Blvd",
    "city": "Los Angeles",
    "country": "United States",
    "rating": 4.2
  },
  {
    "id": 56,
    "name": "Dubai Business Bay Suites",
    "longitude": 55.2769,
    "latitude": 25.1848,
    "description": "A corporate-friendly hotel in the heart of Business Bay.",
    "street": "707 Al Abraj St",
    "city": "Dubai",
    "country": "United Arab Emirates",
    "rating": 4.4
  },
  {
    "id": 34,
    "name": "Tokyo Asakusa Ryokan",
    "longitude": 139.7984,
    "latitude": 35.7129,
    "description": "Experience traditional Japanese hospitality in Asakusa.",
    "street": "808 Nakamise Dori",
    "city": "Tokyo",
    "country": "Japan",
    "rating": 4.7
  },
  {
    "id": 67,
    "name": "Chicago Hyde Park Haven",
    "longitude": -87.5936,
    "latitude": 41.7921,
    "description": "A quiet retreat in the historic Hyde Park neighborhood.",
    "street": "909 E 57th St",
    "city": "Chicago",
    "country": "United States",
    "rating": 4.1
  },
  {
    "id": 15,
    "name": "London Thames View",
    "longitude": -0.1278,
    "latitude": 51.5074,
    "description": "Stay in the heart of London with easy access to all major attractions.",
    "street": "404 Westminster Bridge Rd",
    "city": "London",
    "country": "United Kingdom",
    "rating": 4.5
  },
  {
    "id": 22,
    "name": "Houston Space Lodge",
    "longitude": -95.3698,
    "latitude": 29.7604,
    "description": "A futuristic hotel experience inspired by space exploration.",
    "street": "505 NASA Rd",
    "city": "Houston",
    "country": "United States",
    "rating": 4.0
  },
  {
    "id": 33,
    "name": "Dallas Cowboy Retreat",
    "longitude": -96.797,
    "latitude": 32.7767,
    "description": "Relax in this rustic yet modern hotel in downtown Dallas.",
    "street": "606 Commerce St",
    "city": "Dallas",
    "country": "United States",
    "rating": 4.2
  },
  {
    "id": 41,
    "name": "Guangzhou Pearl River Hotel",
    "longitude": 113.2644,
    "latitude": 23.1291,
    "description": "A serene escape along the banks of the Pearl River.",
    "street": "707 Zhongshan Ave",
    "city": "Guangzhou",
    "country": "China",
    "rating": 4.6
  },
  {
    "id": 55,
    "name": "Amsterdam Canal House",
    "longitude": 4.8952,
    "latitude": 52.3702,
    "description": "A charming hotel overlooking Amsterdam's iconic canals.",
    "street": "808 Keizersgracht",
    "city": "Amsterdam",
    "country": "Netherlands",
    "rating": 4.7
  },
  {
    "id": 62,
    "name": "Frankfurt Skyline Inn",
    "longitude": 8.6821,
    "latitude": 50.1109,
    "description": "Modern accommodations with panoramic views of Frankfurt's skyline.",
    "street": "909 Main Tower Pl",
    "city": "Frankfurt",
    "country": "Germany",
    "rating": 4.3
  },
  {
    "id": 71,
    "name": "New York Empire Suites",
    "longitude": -74.006,
    "latitude": 40.7128,
    "description": "Luxury suites near the iconic Empire State Building.",
    "street": "101 W 34th St",
    "city": "New York",
    "country": "United States",
    "rating": 4.8
  },
  {
    "id": 75,
    "name": "Singapore Marina Bay View",
    "longitude": 103.8198,
    "latitude": 1.3521,
    "description": "A waterfront hotel with stunning views of Marina Bay Sands.",
    "street": "202 Marina Blvd",
    "city": "Singapore",
    "country": "Singapore",
    "rating": 4.9
  },
  {
    "id": 60,
    "name": "Toronto CN Tower Stay",
    "longitude": -79.3832,
    "latitude": 43.6532,
    "description": "Steps away from the iconic CN Tower.",
    "street": "303 Front St W",
    "city": "Toronto",
    "country": "Canada",
    "rating": 4.4
  },
  {
    "id": 65,
    "name": "Madrid Royal Palace Inn",
    "longitude": -3.7026,
    "latitude": 40.4165,
    "description": "A regal stay near Madrid's historic Royal Palace.",
    "street": "404 Calle Bailen",
    "city": "Madrid",
    "country": "Spain",
    "rating": 4.5
  },
  {
    "id": 10,
    "name": "Seoul Gangnam Stay",
    "longitude": 126.978,
    "latitude": 37.5665,
    "description": "Trendy accommodations in Seoul's upscale Gangnam district.",
    "street": "505 Teheran-ro",
    "city": "Seoul",
    "country": "South Korea",
    "rating": 4.6
  },
  {
    "id": 34,
    "name": "Sydney Opera House View",
    "longitude": 151.2093,
    "latitude": -33.8688,
    "description": "A stunning view of the Sydney Opera House from every room.",
    "street": "606 Circular Quay W",
    "city": "Sydney",
    "country": "Australia",
    "rating": 4.7
  },
  {
    "id": 23,
    "name": "Melbourne Southbank Retreat",
    "longitude": 144.9631,
    "latitude": -37.8136,
    "description": "A riverside retreat in Melbourne's artsy Southbank area.",
    "street": "707 Southbank Blvd",
    "city": "Melbourne",
    "country": "Australia",
    "rating": 4.3
  },
  {
    "id": 15,
    "name": "Bangkok Riverside Resort",
    "longitude": 100.5018,
    "latitude": 13.7563,
    "description": "A tranquil riverside resort in the heart of Bangkok.",
    "street": "808 Charoen Krung Rd",
    "city": "Bangkok",
    "country": "Thailand",
    "rating": 4.4
  },
  {
    "id": 22,
    "name": "Brussels Grand Place Hotel",
    "longitude": 4.3517,
    "latitude": 50.8503,
    "description": "Steps away from Brussels' historic Grand Place.",
    "street": "909 Rue au Beurre",
    "city": "Brussels",
    "country": "Belgium",
    "rating": 4.5
  },
  {
    "id": 33,
    "name": "Zurich Alpine View",
    "longitude": 8.5417,
    "latitude": 47.3769,
    "description": "A picturesque hotel with views of the Swiss Alps.",
    "street": "101 Bahnhofstrasse",
    "city": "Zurich",
    "country": "Switzerland",
    "rating": 4.8
  },
  {
    "id": 41,
    "name": "Munich Oktoberfest Inn",
    "longitude": 11.582,
    "latitude": 48.1351,
    "description": "Celebrate Oktoberfest in style at this lively Munich hotel.",
    "street": "202 Theresienwiese",
    "city": "Munich",
    "country": "Germany",
    "rating": 4.2
  },
  {
    "id": 55,
    "name": "Vienna Opera House Suites",
    "longitude": 16.3738,
    "latitude": 48.2082,
    "description": "Luxury suites steps away from Vienna's iconic Opera House.",
    "street": "303 Opernring",
    "city": "Vienna",
    "country": "Austria",
    "rating": 4.7
  },
  {
    "id": 62,
    "name": "Istanbul Bosphorus View",
    "longitude": 28.9784,
    "latitude": 41.0082,
    "description": "A stunning view of the Bosphorus Strait from every room.",
    "street": "404 Istiklal Caddesi",
    "city": "Istanbul",
    "country": "Turkey",
    "rating": 4.6
  },
  {
    "id": 71,
    "name": "Barcelona Gothic Quarter Stay",
    "longitude": 2.1734,
    "latitude": 41.3851,
    "description": "A charming hotel in the heart of Barcelona's Gothic Quarter.",
    "street": "505 Carrer del Bisbe",
    "city": "Barcelona",
    "country": "Spain",
    "rating": 4.4
  },
  {
    "id": 75,
    "name": "Paris Eiffel Tower View",
    "longitude": 2.3522,
    "latitude": 48.8566,
    "description": "A romantic stay with breathtaking views of the Eiffel Tower.",
    "street": "606 Avenue de la Bourdonnais",
    "city": "Paris",
    "country": "France",
    "rating": 4.9
  },
  {
    "id": 60,
    "name": "Rome Colosseum Inn",
    "longitude": 12.4964,
    "latitude": 41.9028,
    "description": "Steps away from the ancient Colosseum.",
    "street": "707 Via dei Fori Imperiali",
    "city": "Rome",
    "country": "Italy",
    "rating": 4.5
  },
  {
    "id": 65,
    "name": "Seattle Space Needle Stay",
    "longitude": -122.3321,
    "latitude": 47.6062,
    "description": "A futuristic hotel near the iconic Space Needle.",
    "street": "808 Broad St",
    "city": "Seattle",
    "country": "United States",
    "rating": 4.2
  },
  {
    "id": 45,
    "name": "Miami South Beach Resort",
    "longitude": -80.1918,
    "latitude": 25.7617,
    "description": "A vibrant beachfront resort in Miami's South Beach area.",
    "street": "909 Ocean Dr",
    "city": "Miami",
    "country": "United States",
    "rating": 4.3
  },
  {
    "id": 72,
    "name": "Boston Harbor View",
    "longitude": -71.0589,
    "latitude": 42.3601,
    "description": "A waterfront hotel with stunning views of Boston Harbor.",
    "street": "101 Atlantic Ave",
    "city": "Boston",
    "country": "United States",
    "rating": 4.6
  },
  {
    "id": 41,
    "name": "Vancouver Stanley Park Inn",
    "longitude": -123.1207,
    "latitude": 49.2827,
    "description": "A serene stay near Vancouver's iconic Stanley Park.",
    "street": "202 Denman St",
    "city": "Vancouver",
    "country": "Canada",
    "rating": 4.4
  }
]